[
  {
    "iata": "PEK",
    "name": "Beijing Capital International Airport",
    "city": "Beijing",
    "country": "China",
    "lat": 40.0799,
    "lng": 116.6031
  },
  {
    "iata": "PKX",
    "name": "Beijing Daxing International Airport",
    "city": "Beijing",
    "country": "China",
    "lat": 39.5092,
    "lng": 116.4106
  },
  {
    "iata": "SHA",
    "name": "Shanghai Hongqiao International Airport",
    "city": "Shanghai",
    "country": "China",
    "lat": 31.1979,
    "lng": 121.3363
  },
  {
    "iata": "PVG",
    "name": "Shanghai Pudong International Airport",
    "city": "Shanghai",
    "country": "China",
    "lat": 31.1443,
    "lng": 121.8083
  },
  {
    "iata": "CAN",
    "name": "Guangzhou Baiyun International Airport",
    "city": "Guangzhou",
    "country": "China",
    "lat": 23.3924,
    "lng": 113.299
  },
  {
    "iata": "SZX",
    "name": "Shenzhen Bao'an International Airport",
    "city": "Shenzhen",
    "country": "China",
    "lat": 22.6393,
    "lng": 113.8107
  },
  {
    "iata": "CTU",
    "name": "Chengdu Shuangliu International Airport",
    "city": "Chengdu",
    "country": "China",
    "lat": 30.5785,
    "lng": 103.9471
  },
  {
    "iata": "TFU",
    "name": "Chengdu Tianfu International Airport",
    "city": "Chengdu",
    "country": "China",
    "lat": 30.3139,
    "lng": 104.4427
  },
  {
    "iata": "WUH",
    "name": "Wuhan Tianhe International Airport",
    "city": "Wuhan",
    "country": "China",
    "lat": 30.7838,
    "lng": 114.2081
  },
  {
    "iata": "HGH",
    "name": "Hangzhou Xiaoshan International Airport",
    "city": "Hangzhou",
    "country": "China",
    "lat": 30.2295,
    "lng": 120.4345
  },
  {
    "iata": "NKG",
    "name": "Nanjing Lukou International Airport",
    "city": "Nanjing",
    "country": "China",
    "lat": 31.742,
    "lng": 118.8614
  },
  {
    "iata": "XIY",
    "name": "Xi'an Xianyang International Airport",
    "city": "Xi'an",
    "country": "China",
    "lat": 34.4471,
    "lng": 108.7516
  },
  {
    "iata": "CSX",
    "name": "Changsha Huanghua International Airport",
    "city": "Changsha",
    "country": "China",
    "lat": 28.1892,
    "lng": 113.2205
  },
  {
    "iata": "CKG",
    "name": "Chongqing Jiangbei International Airport",
    "city": "Chongqing",
    "country": "China",
    "lat": 29.7192,
    "lng": 106.6416
  },
  {
    "iata": "XMN",
    "name": "Xiamen Gaoqi International Airport",
    "city": "Xiamen",
    "country": "China",
    "lat": 24.544,
    "lng": 118.127
  },
  {
    "iata": "TAO",
    "name": "Qingdao Jiaodong International Airport",
    "city": "Qingdao",
    "country": "China",
    "lat": 36.267,
    "lng": 120.374
  },
  {
    "iata": "NGB",
    "name": "Ningbo Lishe International Airport",
    "city": "Ningbo",
    "country": "China",
    "lat": 29.8267,
    "lng": 121.4648
  },
  {
    "iata": "FOC",
    "name": "Fuzhou Changle International Airport",
    "city": "Fuzhou",
    "country": "China",
    "lat": 25.934,
    "lng": 119.663
  },
  {
    "iata": "SHE",
    "name": "Shenyang Taoxian International Airport",
    "city": "Shenyang",
    "country": "China",
    "lat": 41.6398,
    "lng": 123.4831
  },
  {
    "iata": "HRB",
    "name": "Harbin Taiping International Airport",
    "city": "Harbin",
    "country": "China",
    "lat": 45.6234,
    "lng": 126.2503
  },
  {
    "iata": "TSN",
    "name": "Tianjin Binhai International Airport",
    "city": "Tianjin",
    "country": "China",
    "lat": 39.1244,
    "lng": 117.3467
  },
  {
    "iata": "KMG",
    "name": "Kunming Changshui International Airport",
    "city": "Kunming",
    "country": "China",
    "lat": 25.1019,
    "lng": 102.9292
  },
  {
    "iata": "KWE",
    "name": "Guiyang Longdongbao International Airport",
    "city": "Guiyang",
    "country": "China",
    "lat": 26.5414,
    "lng": 106.6416
  },
  {
    "iata": "URC",
    "name": "Ürümqi Diwopu International Airport",
    "city": "Ürümqi",
    "country": "China",
    "lat": 43.9028,
    "lng": 87.4806
  },
  {
    "iata": "CGO",
    "name": "Zhengzhou Xinzheng International Airport",
    "city": "Zhengzhou",
    "country": "China",
    "lat": 34.5197,
    "lng": 113.8411
  },
  {
    "iata": "LJG",
    "name": "Lijiang Sanyi Airport",
    "city": "Lijiang",
    "country": "China",
    "lat": 26.8725,
    "lng": 100.2331
  },
  {
    "iata": "HKG",
    "name": "Hong Kong International Airport",
    "city": "Hong Kong",
    "country": "Hong Kong, China",
    "lat": 22.3089,
    "lng": 113.9146
  },
  {
    "iata": "MFM",
    "name": "Macau International Airport",
    "city": "Macau",
    "country": "Macau, China",
    "lat": 22.1496,
    "lng": 113.5925
  },
  {
    "iata": "TPE",
    "name": "Taiwan Taoyuan International Airport",
    "city": "Taipei",
    "country": "Taiwan, China",
    "lat": 25.0777,
    "lng": 121.2328
  },
  {
    "iata": "TSA",
    "name": "Taipei Songshan Airport",
    "city": "Taipei",
    "country": "Taiwan, China",
    "lat": 25.0694,
    "lng": 121.5523
  },
  {
    "iata": "KHH",
    "name": "Kaohsiung International Airport",
    "city": "Kaohsiung",
    "country": "Taiwan, China",
    "lat": 22.5771,
    "lng": 120.3493
  },
  {
    "iata": "RMQ",
    "name": "Taichung International Airport",
    "city": "Taichung",
    "country": "Taiwan, China",
    "lat": 24.2647,
    "lng": 120.6205
  },
  {
    "iata": "HUN",
    "name": "Hualien Airport",
    "city": "Hualien",
    "country": "Taiwan, China",
    "lat": 24.0231,
    "lng": 121.6175
  },
  {
    "iata": "KNH",
    "name": "Kinmen Airport",
    "city": "Kinmen",
    "country": "Taiwan, China",
    "lat": 24.4279,
    "lng": 118.3592
  },
  {
    "iata": "MZG",
    "name": "Penghu Airport (Makung Airport)",
    "city": "Magong",
    "country": "Taiwan, China",
    "lat": 23.5687,
    "lng": 119.6283
  },
  {
    "iata": "TTT",
    "name": "Taitung Airport",
    "city": "Taitung",
    "country": "Taiwan, China",
    "lat": 22.7556,
    "lng": 121.1017
  },
  {
    "iata": "COO",
    "name": "Cadjehoun Airport",
    "city": "Cotonou",
    "country": "Benin",
    "lat": 6.357,
    "lng": 2.384
  },
  {
    "iata": "ADD",
    "name": "Addis Ababa Bole International Airport",
    "city": "Addis Ababa",
    "country": "Ethiopia",
    "lat": 8.9779,
    "lng": 38.7993
  },
  {
    "iata": "JNB",
    "name": "O.R. Tambo International Airport",
    "city": "Johannesburg",
    "country": "South Africa",
    "lat": -26.1392,
    "lng": 28.2461
  },
  {
    "iata": "CPT",
    "name": "Cape Town International Airport",
    "city": "Cape Town",
    "country": "South Africa",
    "lat": -33.9648,
    "lng": 18.6012
  },
  {
    "iata": "LOS",
    "name": "Murtala Muhammed International Airport",
    "city": "Lagos",
    "country": "Nigeria",
    "lat": 6.5775,
    "lng": 3.3219
  },
  {
    "iata": "ACC",
    "name": "Kotoka International Airport",
    "city": "Accra",
    "country": "Ghana",
    "lat": 5.6052,
    "lng": -0.1625
  },
  {
    "iata": "NBO",
    "name": "Jomo Kenyatta International Airport",
    "city": "Nairobi",
    "country": "Kenya",
    "lat": -1.319167,
    "lng": 36.9275
  },
  {
    "iata": "LHR",
    "name": "London Heathrow Airport",
    "city": "London",
    "country": "United Kingdom",
    "lat": 51.47,
    "lng": -0.4543
  },
  {
    "iata": "NRT",
    "name": "Narita International Airport",
    "city": "Tokyo",
    "country": "Japan",
    "lat": 35.772,
    "lng": 140.3929
  },
  {
    "iata": "HND",
    "name": "Tokyo Haneda Airport",
    "city": "Tokyo",
    "country": "Japan",
    "lat": 35.5494,
    "lng": 139.7798
  },
  {
    "iata": "SIN",
    "name": "Singapore Changi Airport",
    "city": "Singapore",
    "country": "Singapore",
    "lat": 1.3644,
    "lng": 103.9915
  },
  {
    "iata": "FRA",
    "name": "Frankfurt Airport",
    "city": "Frankfurt",
    "country": "Germany",
    "lat": 50.0379,
    "lng": 8.5622
  },
  {
    "iata": "AMS",
    "name": "Amsterdam Schiphol Airport",
    "city": "Amsterdam",
    "country": "Netherlands",
    "lat": 52.3105,
    "lng": 4.7683
  },
  {
    "iata": "DXB",
    "name": "Dubai International Airport",
    "city": "Dubai",
    "country": "United Arab Emirates",
    "lat": 25.2532,
    "lng": 55.3657
  },
  {
    "iata": "SYD",
    "name": "Sydney Kingsford Smith Airport",
    "city": "Sydney",
    "country": "Australia",
    "lat": -33.9399,
    "lng": 151.1753
  },
  {
    "iata": "YVR",
    "name": "Vancouver International Airport",
    "city": "Vancouver",
    "country": "Canada",
    "lat": 49.1951,
    "lng": -123.1779
  },
  {
    "iata": "CMN",
    "name": "Mohammed V International Airport",
    "city": "Casablanca",
    "country": "Morocco",
    "lat": 33.367,
    "lng": -7.5898
  },
  {
    "iata": "NKC",
    "name": "Nouakchott–Oumtounsy International Airport",
    "city": "Nouakchott",
    "country": "Mauritania",
    "lat": 18.085,
    "lng": -15.965
  },
  {
    "iata": "NDB",
    "name": "Nouadhibou International Airport",
    "city": "Nouadhibou",
    "country": "Mauritania",
    "lat": 20.931,
    "lng": -17.034
  },
  {
    "iata": "DSS",
    "name": "Blaise Diagne International Airport",
    "city": "Dakar",
    "country": "Senegal",
    "lat": 14.733,
    "lng": -17.021
  },
  {
    "iata": "IST",
    "name": "Istanbul International Airport",
    "city": "Istanbul",
    "country": "Turkey",
    "lat": 41.2753,
    "lng": 28.7519
  },
  {
    "iata": "SAW",
    "name": "Istanbul Sabiha Gökçen International Airport",
    "city": "Istanbul",
    "country": "Turkey",
    "lat": 40.8989,
    "lng": 29.3092
  },
  {
    "iata": "DOH",
    "name": "Hamad International Airport",
    "city": "Doha",
    "country": "Qatar",
    "lat": 25.2765,
    "lng": 51.6081
  },
  {
    "iata": "DXB",
    "name": "Dubai International Airport",
    "city": "Dubai",
    "country": "United Arab Emirates",
    "lat": 25.2532,
    "lng": 55.3657
  },
  {
    "iata": "AUH",
    "name": "Abu Dhabi International Airport",
    "city": "Abu Dhabi",
    "country": "United Arab Emirates",
    "lat": 24.4334,
    "lng": 54.6519
  },
  {
    "iata": "CDG",
    "name": "Charles de Gaulle Airport",
    "city": "Paris",
    "country": "France",
    "lat": 49.0097,
    "lng": 2.5479
  },
  {
    "iata": "ORY",
    "name": "Paris Orly Airport",
    "city": "Paris",
    "country": "France",
    "lat": 48.7262,
    "lng": 2.3599
  },
  {
    "iata": "NCE",
    "name": "Nice Côte d'Azur Airport",
    "city": "Nice",
    "country": "France",
    "lat": 43.6651,
    "lng": 7.2159
  },
  {
    "iata": "LYS",
    "name": "Lyon-Saint Exupéry Airport",
    "city": "Lyon",
    "country": "France",
    "lat": 45.7262,
    "lng": 5.0811
  },
  {
    "iata": "MRS",
    "name": "Marseille Provence Airport",
    "city": "Marseille",
    "country": "France",
    "lat": 43.4392,
    "lng": 5.2214
  },
  {
    "iata": "BVA",
    "name": "Beauvais-Tillé Airport",
    "city": "Beauvais",
    "country": "France",
    "lat": 49.4547,
    "lng": 2.1125
  },
  {
    "iata": "TLS",
    "name": "Toulouse-Blagnac Airport",
    "city": "Toulouse",
    "country": "France",
    "lat": 43.6292,
    "lng": 1.3633
  },
  {
    "iata": "NTE",
    "name": "Nantes Atlantique Airport",
    "city": "Nantes",
    "country": "France",
    "lat": 47.1542,
    "lng": -1.6106
  },
  {
    "iata": "BOD",
    "name": "Bordeaux-Mérignac Airport",
    "city": "Bordeaux",
    "country": "France",
    "lat": 44.8281,
    "lng": -0.7156
  },
  {
    "iata": "TLN",
    "name": "Toulon-Hyères Airport",
    "city": "Toulon",
    "country": "France",
    "lat": 43.1181,
    "lng": 6.1294
  },
  {
    "iata": "BES",
    "name": "Brest Bretagne Airport",
    "city": "Brest",
    "country": "France",
    "lat": 48.4472,
    "lng": -4.4153
  },
  {
    "iata": "LIL",
    "name": "Lille Airport",
    "city": "Lille",
    "country": "France",
    "lat": 50.5647,
    "lng": 3.0875
  },
  {
    "iata": "RNS",
    "name": "Rennes–Saint-Jacques Airport",
    "city": "Rennes",
    "country": "France",
    "lat": 48.0692,
    "lng": -1.7219
  },
  {
    "iata": "AJA",
    "name": "Ajaccio Napoleon Bonaparte Airport",
    "city": "Ajaccio",
    "country": "France",
    "lat": 41.9192,
    "lng": 8.8056
  },
  {
    "iata": "BIA",
    "name": "Bastia – Poretta Airport",
    "city": "Bastia",
    "country": "France",
    "lat": 42.5525,
    "lng": 9.4833
  },
  {
    "iata": "CLY",
    "name": "Calvi – Sainte-Catherine Airport",
    "city": "Calvi",
    "country": "France",
    "lat": 42.5481,
    "lng": 8.7925
  },
  {
    "iata": "FSC",
    "name": "Figari Sud-Corse Airport",
    "city": "Figari",
    "country": "France",
    "lat": 41.5167,
    "lng": 9.1514
  },
  {
    "iata": "PGF",
    "name": "Perpignan–Rivesaltes Airport",
    "city": "Perpignan",
    "country": "France",
    "lat": 42.7406,
    "lng": 2.8753
  },
  {
    "iata": "LDE",
    "name": "Tarbes–Lourdes–Pyrénées Airport",
    "city": "Tarbes",
    "country": "France",
    "lat": 43.1781,
    "lng": -0.0069
  },
  {
    "iata": "JFK",
    "name": "John F. Kennedy International Airport",
    "city": "New York",
    "country": "United States",
    "lat": 40.6413,
    "lng": -73.7781
  },
  {
    "iata": "LGA",
    "name": "LaGuardia Airport",
    "city": "New York",
    "country": "United States",
    "lat": 40.7769,
    "lng": -73.874
  },
  {
    "iata": "EWR",
    "name": "Newark Liberty International Airport",
    "city": "Newark",
    "country": "United States",
    "lat": 40.6925,
    "lng": -74.1687
  },
  {
    "iata": "LAX",
    "name": "Los Angeles International Airport",
    "city": "Los Angeles",
    "country": "United States",
    "lat": 33.9425,
    "lng": -118.4081
  },
  {
    "iata": "ORD",
    "name": "Chicago O'Hare International Airport",
    "city": "Chicago",
    "country": "United States",
    "lat": 41.9742,
    "lng": -87.9073
  },
  {
    "iata": "ATL",
    "name": "Hartsfield–Jackson Atlanta International Airport",
    "city": "Atlanta",
    "country": "United States",
    "lat": 33.6407,
    "lng": -84.4279
  },
  {
    "iata": "SFO",
    "name": "San Francisco International Airport",
    "city": "San Francisco",
    "country": "United States",
    "lat": 37.6213,
    "lng": -122.379
  },
  {
    "iata": "SEA",
    "name": "Seattle–Tacoma International Airport",
    "city": "Seattle",
    "country": "United States",
    "lat": 47.4502,
    "lng": -122.3088
  },
  {
    "iata": "MIA",
    "name": "Miami International Airport",
    "city": "Miami",
    "country": "United States",
    "lat": 25.7933,
    "lng": -80.2906
  },
  {
    "iata": "DFW",
    "name": "Dallas/Fort Worth International Airport",
    "city": "Dallas/Fort Worth",
    "country": "United States",
    "lat": 32.8968,
    "lng": -97.038
  },
  {
    "iata": "LAS",
    "name": "Harry Reid International Airport (Las Vegas Airport)",
    "city": "Las Vegas",
    "country": "United States",
    "lat": 36.0801,
    "lng": -115.1522
  },
  {
    "iata": "PHX",
    "name": "Phoenix Sky Harbor International Airport",
    "city": "Phoenix",
    "country": "United States",
    "lat": 33.4342,
    "lng": -112.0116
  },
  {
    "iata": "IAH",
    "name": "George Bush Intercontinental Airport",
    "city": "Houston",
    "country": "United States",
    "lat": 29.9844,
    "lng": -95.3414
  },
  {
    "iata": "BOS",
    "name": "Logan International Airport",
    "city": "Boston",
    "country": "United States",
    "lat": 42.3641,
    "lng": -71.0052
  },
  {
    "iata": "IAD",
    "name": "Washington Dulles International Airport",
    "city": "Washington, D.C.",
    "country": "United States",
    "lat": 38.9445,
    "lng": -77.4558
  },
  {
    "iata": "MCO",
    "name": "Orlando International Airport",
    "city": "Orlando",
    "country": "United States",
    "lat": 28.4294,
    "lng": -81.3089
  },
  {
    "iata": "TPA",
    "name": "Tampa International Airport",
    "city": "Tampa",
    "country": "United States",
    "lat": 27.9755,
    "lng": -82.5333
  },
  {
    "iata": "SAN",
    "name": "San Diego International Airport",
    "city": "San Diego",
    "country": "United States",
    "lat": 32.7336,
    "lng": -117.1901
  },
  {
    "iata": "PDX",
    "name": "Portland International Airport",
    "city": "Portland",
    "country": "United States",
    "lat": 45.5889,
    "lng": -122.5975
  },
  {
    "iata": "HNL",
    "name": "Daniel K. Inouye International Airport (Honolulu Airport)",
    "city": "Honolulu",
    "country": "United States",
    "lat": 21.3187,
    "lng": -157.9216
  },
  {
    "iata": "CLT",
    "name": "Charlotte Douglas International Airport",
    "city": "Charlotte",
    "country": "United States",
    "lat": 35.214,
    "lng": -80.9431
  },
  {
    "iata": "BWI",
    "name": "Baltimore/Washington International Thurgood Marshall Airport",
    "city": "Baltimore",
    "country": "United States",
    "lat": 39.1754,
    "lng": -76.6684
  },
  {
    "iata": "SLC",
    "name": "Salt Lake City International Airport",
    "city": "Salt Lake City",
    "country": "United States",
    "lat": 40.7859,
    "lng": -111.9791
  }
]